{
"type": "FeatureCollection",
"name": "Movie_theaters_PDX",
"crs": { "type": "name", "properties": { "name": "urn:ogc:def:crs:OGC:1.3:CRS84" } },
"features": [
{ "type": "Feature", "properties": { "title": "", "desc": null, "address": "", "url": "", "lon": -122.681425, "lat": 45.516018 }, "geometry": { "type": "Point", "coordinates": [ -122.681425, 45.516018 ] } },
{ "type": "Feature", "properties": { "title": "Star Theater and Starlight Lounge", "desc": null, "address": "", "url": "https://www.google.com/maps/place/Star+Theater+and+Starlight+Lounge/data=!4m2!3m1!1s0x54950a0138da9fa3:0xa8100cad84dda96e", "lon": -122.676748, "lat": 45.5234 }, "geometry": { "type": "Point", "coordinates": [ -122.676748, 45.5234 ] } },
{ "type": "Feature", "properties": { "title": "Joy Cinema", "desc": null, "address": "", "url": "https://www.google.com/maps/place/Joy+Cinema/data=!4m2!3m1!1s0x54950ce3ffffffff:0xcba6d5ecbb04ddaa", "lon": -122.7659929, "lat": 45.4340203 }, "geometry": { "type": "Point", "coordinates": [ -122.7659929, 45.4340203 ] } },
{ "type": "Feature", "properties": { "title": "McMenamins Kennedy School Theater", "desc": null, "address": "", "url": "https://www.google.com/maps/place/McMenamins+Kennedy+School+Theater/data=!4m2!3m1!1s0x5495a6e841c06601:0xb0056712ce14fa3f", "lon": -122.629643, "lat": 45.564506 }, "geometry": { "type": "Point", "coordinates": [ -122.629643, 45.564506 ] } },
{ "type": "Feature", "properties": { "title": "Moreland Theater", "desc": null, "address": "", "url": "https://www.google.com/maps/place/Moreland+Theater/data=!4m2!3m1!1s0x54950aea7a659a15:0x1ada3d4683d059bf", "lon": -122.6485018, "lat": 45.4743443 }, "geometry": { "type": "Point", "coordinates": [ -122.6485018, 45.4743443 ] } },
{ "type": "Feature", "properties": { "title": "St. Johns Twin Cinemas", "desc": null, "address": "", "url": "https://www.google.com/maps/place/St.+Johns+Twin+Cinemas/data=!4m2!3m1!1s0x5495a8006d3f3ca9:0x5bd589cfcf3c5687", "lon": -122.75566, "lat": 45.59057 }, "geometry": { "type": "Point", "coordinates": [ -122.75566, 45.59057 ] } },
{ "type": "Feature", "properties": { "title": "McMenamins Bagdad Theater & Pub", "desc": null, "address": "", "url": "https://www.google.com/maps/place/McMenamins+Bagdad+Theater+%26+Pub/data=!4m2!3m1!1s0x5495a08d8dbaf3f1:0xbc101449ec08385", "lon": -122.6254, "lat": 45.5119 }, "geometry": { "type": "Point", "coordinates": [ -122.6254, 45.5119 ] } },
{ "type": "Feature", "properties": { "title": "5th Avenue Cinema", "desc": null, "address": "", "url": "https://www.google.com/maps/place/5th+Avenue+Cinema/data=!4m2!3m1!1s0x54950a16a052abfb:0x97e8be8b378049c7", "lon": -122.6827, "lat": 45.5101 }, "geometry": { "type": "Point", "coordinates": [ -122.6827, 45.5101 ] } },
{ "type": "Feature", "properties": { "title": "Avalon Theatre", "desc": null, "address": "", "url": "https://www.google.com/maps/place/Avalon+Theatre/data=!4m2!3m1!1s0x5495a0937b4c1109:0xcca426e04f8117da", "lon": -122.86193217054701, "lat": 45.544108855090997 }, "geometry": { "type": "Point", "coordinates": [ -122.861932170547007, 45.544108855090997 ] } },
{ "type": "Feature", "properties": { "title": "Academy Theater", "desc": null, "address": "", "url": "https://www.google.com/maps/place/Academy+Theater/data=!4m2!3m1!1s0x5495a106cd771e73:0x51cea234d37783a2", "lon": -122.582815, "lat": 45.519014 }, "geometry": { "type": "Point", "coordinates": [ -122.582815, 45.519014 ] } },
{ "type": "Feature", "properties": { "title": "Cinemagic", "desc": null, "address": "", "url": "https://www.google.com/maps/place/Cinemagic/data=!4m2!3m1!1s0x5495a099435e76b7:0x23d8e09b427ad3d6", "lon": -122.645055, "lat": 45.512319 }, "geometry": { "type": "Point", "coordinates": [ -122.645055, 45.512319 ] } },
{ "type": "Feature", "properties": { "title": "Studio One Theaters", "desc": null, "address": "", "url": "https://www.google.com/maps/place/Studio+One+Theaters/data=!4m2!3m1!1s0x5495a18b0576f215:0x774572a4db70f74d", "lon": -122.6213615, "lat": 45.4981928 }, "geometry": { "type": "Point", "coordinates": [ -122.6213615, 45.4981928 ] } },
{ "type": "Feature", "properties": { "title": "PAM CUT's Tomorrow Theater", "desc": null, "address": "", "url": "https://www.google.com/maps/place/PAM+CUT's+Tomorrow+Theater/data=!4m2!3m1!1s0x5495a148fad74e71:0x6a1fdf7772d20a3e", "lon": -122.627591, "lat": 45.504606 }, "geometry": { "type": "Point", "coordinates": [ -122.627591, 45.504606 ] } },
{ "type": "Feature", "properties": { "title": "Laurelhurst Theater", "desc": null, "address": "", "url": "https://www.google.com/maps/place/Laurelhurst+Theater/data=!4m2!3m1!1s0x5495a0bf1dd67145:0xe4ad5612540de235", "lon": -122.6375138, "lat": 45.5232385 }, "geometry": { "type": "Point", "coordinates": [ -122.6375138, 45.5232385 ] } },
{ "type": "Feature", "properties": { "title": "Clinton Street Theater", "desc": null, "address": "", "url": "https://www.google.com/maps/place/Clinton+Street+Theater/data=!4m2!3m1!1s0x5495a083d2cc3f73:0xad6c76ff40bcfd1d", "lon": -122.6402898, "lat": 45.5032807 }, "geometry": { "type": "Point", "coordinates": [ -122.6402898, 45.5032807 ] } },
{ "type": "Feature", "properties": { "title": "Hollywood Theatre", "desc": null, "address": "", "url": "https://www.google.com/maps/place/Hollywood+Theatre/data=!4m2!3m1!1s0x5495a0d74331afef:0xa735454fea36ab36", "lon": -122.6207777, "lat": 45.535574 }, "geometry": { "type": "Point", "coordinates": [ -122.6207777, 45.535574 ] } },
{ "type": "Feature", "properties": { "title": "Living Room Theaters", "desc": null, "address": "", "url": "https://www.google.com/maps/place/Living+Room+Theaters/data=!4m2!3m1!1s0x54950a03a2c82821:0x947db45651aa9a77", "lon": -122.681381, "lat": 45.522337 }, "geometry": { "type": "Point", "coordinates": [ -122.681381, 45.522337 ] } },
{ "type": "Feature", "properties": { "title": "Cinema 21", "desc": null, "address": "", "url": "https://www.google.com/maps/place/Cinema+21/data=!4m2!3m1!1s0x549509f752b6135b:0x49a818903dae867", "lon": -122.69434, "lat": 45.5273386 }, "geometry": { "type": "Point", "coordinates": [ -122.69434, 45.5273386 ] } }
]
}
